city,country,ID,date,cloudiness,humidity,latitude,longitude,temperature,wind speed
Grand Gaube,MU,934479,1535061600,75,83,-20.01,57.66,69.8,6.93
Albany,AU,2077963,1535063622,0,88,-35.02,117.88,43.27,4.36
Puerto Ayora,EC,3652764,1535061600,75,64,-0.74,-90.35,75.2,17.22
Kavaratti,IN,1267390,1535063623,68,95,10.57,72.64,82.51,16.89
Kuryk,KZ,609919,1535063623,0,65,43.18,51.68,67.66,12.08
Semnan,IR,116402,1535063623,0,71,35.58,53.39,65.77,5.93
Kodiak,US,4407665,1535061180,90,90,39.95,-94.76,71.06,11.41
Mar del Plata,AR,3863379,1535063553,12,50,-46.43,-67.52,46.69,14.88
Cidreira,BR,3466165,1535063533,0,94,-30.17,-50.22,54.07,10.4
San Patricio,MX,3985168,1535060580,40,70,19.22,-104.7,89.6,11.41
Cherskiy,RU,2126199,1535063624,24,78,68.75,161.3,44.71,6.49
Vaini,TO,4032243,1535061600,75,88,-21.2,-175.2,75.2,4.7
Kaka,TM,161901,1535063624,0,67,37.35,59.62,49.93,2.24
Provideniya,RU,4031574,1535061600,90,76,64.42,-173.23,50.0,6.71
Coihaique,CL,3894426,1535061600,40,57,-45.58,-72.07,37.4,5.82
Agasegyhaza,HU,3056391,1535061600,0,100,46.84,19.45,69.8,8.16
Butaritari,KI,2110227,1535063532,88,100,3.07,172.79,84.67,7.72
Yellowknife,CA,6185377,1535061600,90,72,62.45,-114.38,50.0,4.7
Harper,LR,2276492,1535063626,92,100,4.38,-7.71,75.22,7.05
Busselton,AU,2075265,1535063626,48,100,-33.64,115.35,52.63,7.94
Palmer,US,5871146,1535061360,90,93,61.6,-149.11,55.04,2.68
Klaksvik,FO,2618795,1535061000,76,93,62.23,-6.59,48.2,11.41
Chuy,UY,3443061,1535063627,0,94,-33.69,-53.46,49.66,8.39
Rikitea,PF,4030556,1535063627,0,100,-23.12,-134.97,69.19,17.78
Henties Bay,NA,3356832,1535063627,0,100,-22.12,14.28,48.76,3.58
Saint-Philippe,RE,935215,1535061600,90,52,-21.36,55.77,71.6,6.93
Mahebourg,MU,934322,1535061600,75,83,-20.41,57.7,69.8,6.93
Cape Town,ZA,3369157,1535061600,0,87,-33.93,18.42,51.8,5.82
Nikolskoye,RU,546105,1535061600,0,63,59.7,30.79,64.4,13.42
Castro,CL,3896218,1535063628,20,80,-42.48,-73.76,42.37,7.83
Thompson,CA,6165406,1535061600,90,57,55.74,-97.86,48.2,6.93
Medicine Hat,CA,6071618,1535061600,5,17,50.04,-110.68,89.6,6.93
Dingle,IE,2964782,1535063629,92,99,52.14,-10.27,57.67,19.69
Avarua,CK,4035715,1535061600,40,73,-21.21,-159.78,77.0,9.17
Port Alfred,ZA,964432,1535063629,0,100,-33.59,26.89,54.34,3.69
Le Port,RE,935616,1535061600,90,64,-20.94,55.29,71.6,10.29
Tiksi,RU,2015306,1535063630,88,100,71.64,128.87,46.33,11.63
Kencong,ID,1632358,1535063630,12,89,-7.78,112.24,68.56,6.15
Kaitangata,NZ,2208248,1535063630,64,89,-46.28,169.85,47.77,9.4
Atuona,PF,4020109,1535063545,0,100,-9.8,-139.03,79.0,10.63
Hattiesburg,US,4429295,1535062500,1,46,31.33,-89.29,87.98,5.82
Barrow,US,4252975,1535062500,1,51,39.51,-90.4,78.8,6.93
Cabo San Lucas,MX,3985710,1535060700,40,62,22.89,-109.91,86.0,4.7
Hithadhoo,MV,1282256,1535063631,92,100,-0.6,73.08,80.71,4.47
San Vicente,PH,1687428,1535063632,0,99,14.11,122.87,84.22,17.22
Tananger,NO,3134865,1535061000,90,87,58.94,5.59,55.4,3.36
Qasigiannguit,GL,3420768,1535061000,20,70,68.82,-51.19,44.6,8.05
Waipawa,NZ,2185329,1535063546,92,84,-39.94,176.59,46.15,16.67
Alta Floresta,BR,6316343,1535058000,20,41,-9.87,-56.08,91.4,4.7
Tahta,EG,347634,1535063633,0,55,26.77,31.5,77.47,6.93
Upernavik,GL,3418910,1535063540,92,92,72.79,-56.15,41.47,3.24
Sao Filipe,CV,3374210,1535063570,36,99,14.9,-24.5,77.65,9.62
Ormara,PK,1168700,1535063633,92,96,25.21,64.64,78.64,15.66
Ushuaia,AR,3833367,1535058060,90,80,-54.81,-68.31,39.2,23.04
Hermanus,ZA,3366880,1535063634,0,92,-34.42,19.24,34.54,2.68
Inhambane,MZ,1045114,1535063634,0,100,-23.87,35.38,68.11,4.59
Chifeng,CN,2038067,1535063634,0,83,42.27,118.96,64.33,9.06
Rio Claro,TT,3573840,1535061600,40,94,10.31,-61.18,75.2,8.05
Khatanga,RU,2022572,1535063635,8,82,71.98,102.47,51.37,3.13
Bredasdorp,ZA,1015776,1535061600,0,87,-34.53,20.04,44.6,1.12
Altay,CN,1529651,1535063635,0,71,47.83,88.13,32.92,2.68
Punta Arenas,CL,3874787,1535061600,40,86,-53.16,-70.91,33.8,23.04
New Norfolk,AU,2155415,1535061600,20,75,-42.78,147.06,44.6,9.17
Kushima,JP,1895695,1535060820,75,88,31.5,131.29,82.4,5.82
Chokurdakh,RU,2126123,1535063636,32,89,70.62,147.9,44.44,5.82
Fairbanks,US,5861897,1535061480,90,75,64.84,-147.72,62.6,4.36
Hobart,AU,2163355,1535061600,20,75,-42.88,147.33,44.6,9.17
Romitan,UZ,1217662,1535061600,0,37,39.93,64.38,68.0,6.93
Maniitsoq,GL,3421982,1535063637,0,91,65.42,-52.9,41.92,8.05
Beringovskiy,RU,2126710,1535063637,88,100,63.05,179.32,51.01,12.75
Souillac,MU,933995,1535061600,75,83,-20.52,57.52,69.8,6.93
Bathsheba,BB,3374083,1535061600,40,74,13.22,-59.52,80.6,13.87
Saint-Francois,GP,3578441,1535061600,0,69,16.25,-61.27,82.4,9.17
Hobbs,US,5471578,1535061300,40,18,32.7,-103.14,96.8,12.75
Olinda,BR,3456160,1535061600,0,69,-22.82,-43.41,78.8,2.24
Moree,AU,2156927,1535063638,0,73,-29.46,149.84,58.48,13.98
Itarema,BR,3393692,1535063639,0,71,-2.92,-39.92,78.73,16.33
Qaanaaq,GL,3831208,1535063639,76,100,77.48,-69.36,35.71,2.8
Vaitape,PF,4033077,1535063639,12,98,-16.52,-151.75,79.72,14.76
Kurumkan,RU,2021188,1535063639,92,67,54.33,110.32,58.84,1.9
Nicoya,CR,3622716,1535061600,0,62,10.15,-85.45,84.2,11.41
Chinhoyi,ZW,893697,1535063640,36,46,-17.36,30.19,62.8,8.95
Ilulissat,GL,3423146,1535061000,20,70,69.22,-51.1,44.6,8.05
Broken Hill,AU,2173911,1535063640,64,45,-31.97,141.45,56.77,13.42
Luba,GQ,2309528,1535061600,40,88,3.46,8.55,77.0,5.82
Brezno,SK,3060950,1535061600,0,64,48.81,19.64,69.8,2.24
Tommot,RU,2015179,1535063641,64,94,58.97,126.27,55.06,3.47
Trinidad,BO,3902377,1535061600,0,48,-14.83,-64.9,84.2,3.36
Ancud,CL,3899695,1535063641,0,72,-41.87,-73.83,42.37,7.16
Lompoc,US,5367788,1535061360,1,61,34.64,-120.46,80.6,16.11
Keti Bandar,PK,1174451,1535063642,92,98,24.14,67.45,80.17,22.37
Sitka,US,4267710,1535063642,8,64,37.17,-99.65,88.18,9.17
Kulhudhuffushi,MV,1337613,1535063642,32,98,6.62,73.07,83.05,15.32
Jamestown,SH,3370903,1535063642,80,100,-15.94,-5.72,68.29,18.23
Ostrovnoy,RU,556268,1535063642,92,96,68.05,39.51,44.8,3.13
Georgetown,SH,2411397,1535063643,92,100,-7.93,-14.42,76.48,17.78
Gubkinskiy,RU,1539209,1535063643,44,91,64.43,76.5,53.26,2.91
Chicama,PE,3698359,1535061600,90,88,-7.84,-79.15,62.6,9.17
Boissevain,CA,5905191,1535062500,1,50,49.23,-100.06,78.8,9.17
Tuktoyaktuk,CA,6170031,1535061600,40,83,69.44,-133.03,50.0,10.29
College,US,5859699,1535061480,90,75,64.86,-147.8,62.6,4.36
Faanui,PF,4034551,1535063644,76,100,-16.48,-151.75,78.82,14.88
Vardo,NO,777019,1535061000,75,100,70.37,31.11,48.2,5.82
Opuwo,NA,3354077,1535063645,0,56,-18.06,13.84,50.56,3.36
Cotonou,BJ,2394819,1535061600,40,88,6.37,2.43,77.0,13.87
Itororo,BR,3460542,1535063645,32,91,-15.12,-40.07,66.22,5.59
Anadyr,RU,2127202,1535061600,0,76,64.73,177.51,51.8,6.71
Zhicheng,CN,1805012,1535063646,0,71,35.04,112.59,76.48,3.91
Coquimbo,CL,3893629,1535061600,0,67,-29.95,-71.34,59.0,13.87
North Bend,US,5742974,1535061360,90,72,43.41,-124.22,64.94,12.75
Jabinyanah,TN,2470260,1535061600,20,69,35.03,10.91,78.8,3.36
Lukovetskiy,RU,533418,1535061600,90,100,64.29,41.92,53.6,17.9
Ambilobe,MG,1082243,1535063647,8,65,-13.19,49.05,68.11,11.63
Makakilo City,US,5850554,1535061480,20,67,21.35,-158.09,82.94,11.41
Takoradi,GH,2294915,1535063647,92,94,4.89,-1.75,74.5,5.03
Indian Head,CA,5982839,1535063648,0,28,50.53,-103.67,87.37,7.16
Pisco,PE,3932145,1535061600,20,30,-13.71,-76.2,71.6,21.92
Datong,CN,2037799,1535063648,92,98,40.09,113.3,58.75,4.03
Kapaa,US,5848280,1535061180,90,93,22.08,-159.32,80.96,18.34
Sao Jose da Coroa Grande,BR,3388456,1535063649,80,96,-8.9,-35.15,70.72,6.15
Geraldton,AU,2070998,1535061600,0,87,-28.77,114.6,46.4,10.29
Kautokeino,NO,779330,1535063649,12,80,69.01,23.04,42.46,4.25
Atambua,ID,1651103,1535063649,8,100,-9.11,124.89,75.76,5.14
Taupo,NZ,2181742,1535063650,0,85,-38.68,176.08,48.85,9.62
Arraial do Cabo,BR,3471451,1535058000,0,78,-22.97,-42.02,73.4,12.75
Camopi,GF,3382226,1535063650,44,94,3.17,-52.33,73.33,2.13
Ahipara,NZ,2194098,1535063650,36,82,-35.17,173.16,56.14,17.67
Dali,CN,1814093,1535063650,92,100,25.6,100.24,60.82,1.9
Cordoba,AR,3846616,1535063651,0,45,-27.78,-67.24,49.12,5.37
Lebu,CL,3883457,1535063651,88,100,-37.62,-73.65,50.56,18.68
Hecun,CN,1808749,1535063651,0,71,29.94,119.31,75.85,3.36
Kota Kinabalu,MY,1733432,1535061600,75,73,5.98,116.07,77.0,4.7
Turukhansk,RU,1488903,1535063651,44,70,65.8,87.96,55.42,15.1
Aleppo,SY,170063,1535063652,0,92,36.2,37.17,69.19,5.93
Hilo,US,5855927,1535061180,75,81,19.71,-155.08,82.04,9.17
Matadi,CD,2313002,1535063652,0,94,-5.83,13.46,68.11,5.14
Bambous Virieux,MU,1106677,1535061600,75,83,-20.34,57.76,69.8,6.93
Sao Joao da Barra,BR,3448903,1535061600,0,83,-21.64,-41.05,73.4,16.11
Kremenchuk,UA,704147,1535063653,0,74,49.08,33.43,54.25,4.7
Vestmannaeyjar,IS,3412093,1535063653,8,91,63.44,-20.27,48.85,9.06
Dikson,RU,1507390,1535063653,64,81,73.51,80.55,52.27,13.65
Meulaboh,ID,1214488,1535063653,12,100,4.14,96.13,77.02,2.01
Rosario do Sul,BR,3450873,1535063654,92,88,-30.26,-54.91,61.99,8.95
Vila Velha,BR,6320062,1535061600,0,69,-3.71,-38.6,80.6,8.05
Kaeo,NZ,2189343,1535063654,32,68,-35.1,173.78,55.96,17.22
Baiyin,CN,1817240,1535061600,0,100,36.55,104.13,53.6,4.47
Sosnovo-Ozerskoye,RU,2016216,1535063655,64,87,52.53,111.54,60.37,4.14
Port Lincoln,AU,2063036,1535063655,0,87,-34.72,135.86,59.29,11.41
Pangnirtung,CA,6096551,1535061600,90,57,66.15,-65.72,51.8,21.92
Tual,ID,1623197,1535063604,80,100,-5.67,132.75,78.82,11.74
Puerto Escondido,MX,3520994,1535060460,40,70,15.86,-97.07,86.0,7.05
Cochrane,CA,5924618,1535061600,90,26,51.19,-114.47,82.4,11.41
Victoria,SC,241131,1535058000,20,83,-4.62,55.45,77.0,13.87
Yablonovo,RU,578283,1535061600,0,67,50.85,37.36,57.2,4.47
Semey,KZ,1519422,1535063657,0,89,50.41,80.25,51.46,2.8
Manuk Mangkaw,PH,1701394,1535063657,20,100,4.8,119.85,79.81,6.04
Wageningen,SR,3382783,1535063657,24,100,5.77,-56.69,81.61,14.2
Novotroitsk,RU,517836,1535061600,0,81,51.2,58.3,48.2,8.95
Santa Helena de Goias,BR,3450206,1535063658,64,42,-17.81,-50.6,77.92,4.92
Ulaanbaatar,MN,2028462,1535063400,0,81,47.92,106.92,53.6,6.71
Fayaoue,NC,2141305,1535063658,88,100,-20.65,166.53,70.99,17.34
Smithers,CA,6149996,1535061600,75,45,54.78,-127.17,64.4,12.75
Dwarka,IN,1273294,1535059800,75,94,28.58,77.04,82.4,5.82
East London,ZA,1006984,1535063485,12,100,-33.02,27.91,61.36,3.91
Sahibganj,IN,1257794,1535063659,92,98,25.24,87.63,77.29,3.91
Milton,CA,6092122,1535061600,20,41,43.51,-79.88,78.8,18.34
Necochea,AR,3430443,1535063659,92,77,-38.55,-58.74,51.37,6.71
Santa Maria,CV,3374218,1535061600,40,78,16.6,-22.9,78.8,13.87
Lahij,YE,73560,1535063660,0,75,13.06,44.88,77.47,1.23
Longyearbyen,SJ,2729907,1535061000,75,100,78.22,15.64,42.8,4.7
Port Elizabeth,ZA,964420,1535061600,0,87,-33.92,25.57,48.2,3.36
Ponta do Sol,CV,3374346,1535063660,88,100,17.2,-25.09,76.75,12.75
Luderitz,NA,3355672,1535063661,0,88,-26.65,15.16,51.64,13.76
Bagula,IN,1277844,1535063661,68,97,23.33,88.64,78.46,7.61
Tura,RU,2014833,1535063661,92,78,64.27,100.22,51.64,2.8
Yashan,CN,1786866,1535063661,0,81,30.81,118.02,75.13,3.69
Aklavik,CA,5882953,1535061600,75,61,68.22,-135.01,50.0,4.7
San Luis,AR,3837056,1535063550,92,44,-33.3,-66.34,56.23,15.88
Russell,NZ,2188874,1535063662,32,68,-35.26,174.12,55.96,17.22
Calabozo,VE,3647444,1535063662,32,85,8.92,-67.43,79.09,4.36
Aldan,RU,2027968,1535063662,48,93,58.61,125.39,55.87,3.36
Saskylakh,RU,2017155,1535063569,44,98,71.97,114.09,45.34,4.47
Clyde River,CA,5924351,1535061600,90,100,70.47,-68.59,37.4,5.82
Grindavik,IS,3416888,1535061600,0,81,63.84,-22.43,50.0,10.29
Thomaston,US,4226364,1535061300,75,42,32.89,-84.33,87.08,6.93
Port Hedland,AU,2063042,1535061600,0,34,-20.31,118.58,50.0,5.82
Namatanai,PG,2090021,1535063642,44,100,-3.66,152.44,82.06,3.8
Kavieng,PG,2094342,1535063572,48,100,-2.57,150.8,81.79,5.59
Ojinaga,MX,3994469,1535063664,0,23,29.57,-104.42,94.39,4.03
Tsabong,BW,932987,1535063664,0,39,-26.02,22.4,40.03,4.59
Komsomolskiy,RU,1486910,1535063664,100,66,67.55,63.78,55.87,2.35
Dharchula,IN,1272864,1535063664,76,100,29.85,80.53,55.69,0.56
Novo Aripuana,BR,3663142,1535063664,44,88,-5.12,-60.38,76.84,1.68
Chabahar,IR,1161724,1535063665,32,100,25.29,60.65,80.98,6.26
Zhezkazgan,KZ,1516589,1535061600,90,55,47.8,67.71,66.2,11.18
Shenjiamen,CN,1795632,1535063665,0,92,29.96,122.3,82.6,10.85
Los Llanos de Aridane,ES,2514651,1535061600,0,83,28.66,-17.92,73.4,11.41
Kuching,MY,1735634,1535061600,75,100,1.56,110.34,75.2,7.72
Ponta Delgada,PT,3372783,1535061600,20,73,37.73,-25.67,69.8,4.7
Tezu,IN,1254709,1535063563,64,99,27.93,96.16,69.64,1.57
Severo-Kurilsk,RU,2121385,1535063666,12,100,50.68,156.12,51.28,4.14
Ouadda,CF,236901,1535063559,44,93,8.07,22.4,65.32,2.91
Englewood,US,5421250,1535061480,20,18,39.65,-104.99,87.8,21.92
Zhangye,CN,1785036,1535063667,48,64,38.94,100.46,62.62,4.59
Praia da Vitoria,PT,3372760,1535061600,20,78,38.73,-27.07,73.4,11.18
Port Hardy,CA,6111862,1535061600,40,63,50.7,-127.42,64.4,14.99
Porto Velho,BR,3662762,1535061600,20,65,-8.75,-63.87,82.4,2.13
Santa Lucia,ES,2511150,1535061600,40,83,27.91,-15.54,73.4,20.8
Yerbogachen,RU,2012956,1535063668,0,88,61.28,108.01,50.74,4.14
Salalah,OM,286621,1535061000,90,100,17.01,54.1,73.4,4.7
Naryan-Mar,RU,523392,1535063668,92,99,67.67,53.09,45.43,9.95
Bluff,NZ,2206939,1535063668,24,100,-46.6,168.33,48.31,10.96
La Ronge,CA,6050066,1535061600,90,61,55.1,-105.3,48.2,12.75
Cherepovets,RU,569223,1535063669,0,75,59.13,37.92,55.87,11.07
Matara,LK,1235846,1535063669,80,89,5.95,80.54,78.64,14.99
Evensk,RU,2125693,1535063669,0,83,61.92,159.24,57.31,1.34
Ban Bung,TH,1608418,1535063669,92,99,18.31,100.7,72.34,3.47
Teknaf,BD,1185095,1535063669,100,100,20.86,92.31,73.87,3.36
Tucupita,VE,3625929,1535063670,68,98,9.06,-62.05,75.22,2.46
Torbay,CA,6167817,1535061600,90,94,47.66,-52.73,71.6,16.11
Kuito,AO,3348078,1535063670,8,64,-12.38,16.94,58.12,2.91
Tasiilaq,GL,3424607,1535063561,0,96,65.61,-37.64,43.81,1.34
Lagoa,PT,2267254,1535061600,0,30,37.14,-8.45,86.0,17.22
Atikokan,CA,5888001,1535063671,0,55,48.76,-91.62,73.69,6.15
Eyl,SO,60019,1535063671,0,84,7.98,49.82,74.77,21.47
Dunmore Town,BS,3572462,1535063418,8,100,25.5,-76.65,84.49,10.51
Ozernovskiy,RU,2122293,1535063671,64,95,51.5,156.52,52.0,3.8
Katherine,AU,2068655,1535061600,0,81,-14.47,132.26,53.6,3.36
Hasaki,JP,2112802,1535059800,75,83,35.73,140.83,82.4,13.87
Karlshamn,SE,2701727,1535061000,8,100,56.17,14.86,62.6,1.12
Aksarka,RU,1512019,1535063672,0,73,66.56,67.8,52.09,6.49
Aswan,EG,359792,1535063378,0,35,24.09,32.9,80.31,8.61
Watsa,CD,204283,1535063673,44,95,3.04,29.53,62.26,4.14
Alice Town,BS,3572924,1535063673,0,100,25.72,-79.3,85.57,8.95
Porto Walter,BR,3662761,1535063673,0,75,-8.27,-72.74,77.92,2.35
Christiana,ZA,1013550,1535063674,0,42,-27.91,25.16,42.37,8.28
Grand-Santi,GF,3381538,1535063674,88,49,4.27,-54.38,85.75,3.24
Broome,AU,2075720,1535061600,0,32,-17.97,122.23,53.6,6.93
Eureka,US,5563397,1535061300,90,77,40.8,-124.16,60.98,10.29
Ossora,RU,2122389,1535063674,0,99,59.24,163.07,58.39,5.03
Puerto Colombia,CO,3671497,1535062200,75,100,10.99,-74.96,71.6,11.41
Bella Union,UY,3443631,1535063675,80,81,-30.28,-57.6,63.7,7.38
Ribas do Rio Pardo,BR,3451399,1535063675,0,71,-20.45,-53.76,72.16,7.94
Chapada dos Guimaraes,BR,3466307,1535061600,0,27,-15.46,-55.75,91.4,8.05
Xichang,CN,1789647,1535063676,88,72,27.88,102.25,56.77,1.57
Lerici,IT,3174856,1535060700,40,100,44.07,9.91,73.4,3.36
Takab,IR,113508,1535063505,0,91,36.4,47.11,44.62,2.13
Narsaq,GL,3421719,1535061000,20,61,60.91,-46.05,48.2,3.36
Aykhal,RU,2027296,1535063677,92,95,65.95,111.51,50.11,8.05
Naantali,FI,645212,1535062800,0,93,60.45,22.03,62.6,6.93
Petropavlovsk-Kamchatskiy,RU,2122104,1535061600,20,76,53.05,158.65,53.6,2.24
Wattegama,LK,1241622,1535063678,80,98,7.35,80.68,70.27,3.69
Batagay,RU,2027044,1535063678,56,93,67.65,134.64,52.09,9.84
Carnarvon,AU,2074865,1535063678,0,98,-24.87,113.63,58.48,17.22
Mercedes,AR,3430709,1535063678,68,87,-29.18,-58.08,59.56,7.38
Ritchie,ZA,961226,1535061600,0,60,-29.03,24.6,39.2,1.12
Amazar,RU,2027806,1535063679,0,73,53.86,120.88,65.41,3.13
Balabac,PH,1728675,1535063679,64,100,7.99,117.06,78.64,6.49
Barreirinhas,BR,3406196,1535063632,0,71,-2.75,-42.83,78.91,11.18
Namibe,AO,3347019,1535063553,0,100,-15.19,12.15,64.42,7.05
Port-Gentil,GA,2396518,1535061600,20,88,-0.72,8.78,75.2,4.7
Lieksa,FI,648090,1535063680,8,91,63.32,30.02,46.51,2.35
Lerwick,GB,2644605,1535062800,92,87,60.15,-1.15,51.8,8.05
Bilibino,RU,2126682,1535063680,56,67,68.06,166.44,54.34,3.36
Ugoofaaru,MV,1337619,1535063627,92,100,5.67,73.0,82.42,12.41
Garachine,PA,3709361,1535063681,80,100,8.06,-78.36,79.18,5.14
Canutama,BR,3664716,1535063681,32,89,-6.53,-64.38,78.1,1.57
Pevek,RU,2122090,1535063575,64,100,69.7,170.27,41.65,10.85
Morant Bay,JM,3489440,1535061600,75,55,17.88,-76.41,86.0,12.75
General Pico,AR,3855075,1535063681,44,38,-35.66,-63.75,52.9,10.63
Bethel,US,5880568,1535061180,90,77,60.79,-161.76,55.04,13.87
Dunedin,NZ,2191562,1535063682,20,92,-45.87,170.5,44.71,9.95
Agadez,NE,2448085,1535063683,0,48,16.97,7.99,82.24,9.73
Great Falls,US,5655240,1535061480,1,18,47.5,-111.29,86.0,21.92
Miranda,BR,3457113,1535063683,0,85,-20.24,-56.38,71.35,5.03
Ninghai,CN,1799384,1535061600,0,88,29.29,121.42,75.2,4.47
Hofn,IS,2630299,1535063684,56,100,64.25,-15.21,48.04,2.57
Muroto,JP,1856392,1535058600,75,83,33.37,134.14,82.4,10.29
Turiacu,BR,3665361,1535063684,76,96,-5.01,-63.0,75.22,3.69
Edd,ER,338345,1535063684,20,39,13.93,41.69,78.19,2.46
Oconomowoc,US,5265499,1535061300,40,52,43.11,-88.5,78.98,11.41
Hua Hin,TH,1153269,1535063436,92,99,12.57,99.96,82.78,15.66
Cascais,PT,2269594,1535061600,0,88,38.7,-9.42,69.8,3.36
Puerto Narino,CO,3671387,1535061600,20,62,-3.77,-70.38,87.8,4.7
Segezha,RU,497927,1535063686,48,92,63.74,34.31,56.41,5.93
Tongren,CN,1792592,1535063686,92,92,27.72,109.18,72.07,5.03
Norman Wells,CA,6089245,1535061600,90,75,65.28,-126.83,46.4,8.05
Manta,EC,3654410,1535061600,20,74,-0.95,-80.73,80.6,8.05
Lorengau,PG,2092164,1535063686,68,100,-2.02,147.27,79.09,2.8
Kloulklubed,PW,7671223,1535064600,90,88,7.04,134.26,77.0,3.36
Soyo,AO,2236967,1535063687,8,98,-6.13,12.37,67.39,4.14
Maceio,BR,3395981,1535061600,40,83,-9.67,-35.74,75.2,5.82
Najran,SA,103630,1535061600,0,21,17.54,44.22,80.6,2.46
Jalu,LY,86049,1535063687,0,33,29.03,21.55,85.12,13.42
Sola,VU,2134814,1535063688,68,94,-13.88,167.55,80.35,11.41
Shizuishan,CN,1813344,1535063633,0,66,39.02,106.36,60.01,2.35
Morgan City,US,4333811,1535061360,20,59,29.7,-91.21,87.98,5.82
Cap Malheureux,MU,934649,1535061600,75,83,-19.98,57.61,69.8,6.93
Champasak,LA,1657819,1535063688,92,100,14.89,105.88,72.97,4.03
Samboan,PH,1690623,1535058000,20,88,9.53,123.31,75.2,7.72
Barcelos,BR,3665098,1535063689,12,91,-0.97,-62.93,77.74,3.91
Kedrovyy,RU,1538641,1535061600,0,93,56.17,91.82,53.6,5.7
Kununurra,AU,2068110,1535061600,0,87,-15.77,128.74,55.4,3.36
Sur,OM,286245,1535063596,0,91,22.57,59.53,84.76,5.14
Inuvik,CA,5983607,1535061600,90,62,68.36,-133.71,50.0,9.17
Champerico,GT,3598787,1535061600,75,74,14.3,-91.92,80.6,6.93
Ola,RU,2122574,1535061600,90,87,59.58,151.3,57.2,2.24
Isangel,VU,2136825,1535063691,80,100,-19.55,169.27,71.8,16.55
Rawson,AR,3839307,1535063525,0,34,-43.3,-65.11,46.96,12.64
Tapes,BR,3446880,1535063691,0,95,-30.67,-51.4,50.74,7.16
Ewa Beach,US,5855051,1535061480,20,67,21.32,-158.01,82.94,11.41
Vanimo,PG,2084442,1535063691,68,100,-2.67,141.3,79.72,4.36
Develi,TR,316795,1535061000,0,63,38.39,35.49,62.6,2.24
Gberia Fotombu,SL,2409019,1535063564,76,95,9.88,-11.17,70.99,4.47
Iqaluit,CA,5983720,1535061600,90,93,63.75,-68.52,39.2,24.16
Kawalu,ID,1640902,1535063692,56,97,-7.38,108.21,61.99,1.79
Nepomuceno,BR,3456324,1535063693,20,59,-21.23,-45.23,67.21,5.26
San Ignacio,CR,3621890,1535061600,75,60,9.8,-84.16,77.0,12.75
Oranjemund,NA,3354071,1535063693,0,96,-28.55,16.43,56.86,19.91
Allapalli,IN,1278987,1535063693,68,96,19.43,80.06,74.59,8.5
Wanaka,NZ,2184707,1535063694,24,85,-44.7,169.14,39.04,2.35
Schio,IT,3166917,1535061300,40,88,45.71,11.36,75.2,4.7
Privolzhye,RU,505043,1535063694,0,95,52.86,48.6,52.18,7.27
Roald,NO,3141667,1535061000,92,93,62.58,6.12,55.4,9.17
Belen,TR,321572,1535061000,0,78,36.49,36.19,80.6,14.99
Sagaing,MM,1298482,1535063695,92,93,21.88,95.98,75.85,9.73
Bandarbeyla,SO,64814,1535063695,0,91,9.49,50.81,75.67,32.1
Havre-Saint-Pierre,CA,5972291,1535061600,90,93,50.23,-63.6,57.2,6.93
Ankang,CN,1789065,1535063696,0,75,32.73,108.99,67.21,2.57
Kahului,US,5847411,1535061780,40,84,20.89,-156.47,78.98,17.22
Brownsville,US,4676740,1535061180,20,54,25.91,-97.49,96.08,16.11
Abu Dhabi,AE,292968,1535061600,20,79,24.47,54.37,91.4,8.05
Presidencia Roque Saenz Pena,AR,3840300,1535063696,92,68,-26.79,-60.44,71.44,12.19
Mahanoro,MG,1062553,1535063697,0,100,-19.9,48.8,60.19,2.91
Saldanha,ZA,3361934,1535061600,0,81,-33.01,17.94,48.2,3.36
Tyrma,RU,2014694,1535063697,24,85,50.04,132.17,68.38,3.36
Cacoal,BR,3925212,1535063697,8,72,-11.43,-61.44,78.64,2.13
Padang,ID,1633419,1535063698,76,100,-0.92,100.36,81.34,9.17
Bira,RU,2026659,1535063698,36,88,49.0,132.47,67.57,2.91
Riviere-au-Renard,CA,6943832,1535061600,75,68,49.0,-64.4,66.2,11.41
Tuatapere,NZ,2180815,1535063698,32,100,-46.13,167.69,46.51,9.73
Nuuk,GL,3421319,1535061000,75,57,64.17,-51.74,48.2,1.12
Lewistown,US,4899665,1535062500,1,55,40.39,-90.15,78.08,9.17
Luangwa,ZM,911148,1535063699,0,52,-12.88,28.25,59.29,6.49
Salinopolis,BR,3389822,1535063699,8,97,-0.61,-47.36,80.26,15.32
Havoysund,NO,779622,1535061000,40,87,71.0,24.66,48.2,6.93
San Ramon de la Nueva Oran,AR,3836620,1535063700,0,79,-23.13,-64.33,57.94,2.57
Yeppoon,AU,2142316,1535061600,0,72,-23.13,150.74,62.6,4.7
Angoche,MZ,1052944,1535063700,8,100,-16.23,39.91,77.29,6.26
Kaseda,JP,1859964,1535060820,75,88,31.42,130.32,82.4,5.82
Flinders,AU,6255012,1535058000,75,100,-34.58,150.85,48.2,2.57
Byron Bay,AU,2172880,1535061600,12,77,-28.65,153.62,60.8,3.36
Ureki,GE,611274,1535061600,75,88,42.0,41.78,73.4,6.93
Sarakhs,IR,1159716,1535061600,0,30,36.54,61.16,68.0,4.7
Nanortalik,GL,3421765,1535063567,88,93,60.14,-45.24,42.82,13.09
Camacha,PT,2270385,1535061600,20,78,33.08,-16.33,77.0,4.7
Constitucion,MX,4011743,1535060880,75,38,23.99,-104.67,75.2,3.36
Ongandjera,NA,3354178,1535063702,0,43,-17.88,15.07,55.69,5.7
Weligama,LK,1223738,1535063565,80,89,5.97,80.42,78.64,14.99
Morondava,MG,1058381,1535063703,0,100,-20.3,44.28,66.76,4.59
Bloomington,US,4885164,1535062500,20,44,40.47,-88.99,78.44,9.17
Nizhnyaya Poyma,RU,1497397,1535063703,0,84,56.16,97.2,57.58,2.68
Sertanopolis,BR,3447658,1535061600,0,64,-23.06,-51.04,75.2,4.7
Maraba,BR,3395503,1535061600,20,66,-5.35,-49.1,84.2,3.36
Batagay-Alyta,RU,2027042,1535063704,32,96,67.8,130.41,43.81,5.93
Tilichiki,RU,2120591,1535063596,0,72,60.47,166.1,61.72,6.82
Hangu,CN,1808931,1535061600,0,88,39.25,117.8,69.8,6.71
Tobol,KZ,1518139,1535063704,8,80,52.68,62.58,51.82,11.07
Merauke,ID,2082539,1535063621,32,81,-8.49,140.4,80.89,12.19
Den Helder,NL,2757220,1535063100,90,82,52.96,4.76,62.6,5.82
Muros,ES,3115824,1535061600,90,93,42.77,-9.06,64.4,6.93
Kargasok,RU,1504382,1535063705,92,100,59.06,80.87,53.44,2.8
Namikupa,TZ,877631,1535063705,0,92,-10.83,39.6,62.08,2.13
Otjimbingwe,NA,3353871,1535063706,0,52,-22.35,16.13,44.8,2.46
Hamilton,BM,3573197,1535061300,40,74,32.3,-64.78,82.4,10.29
Chanika,TZ,160592,1535063706,68,96,-5.42,38.02,63.79,5.03
Half Moon Bay,US,5354943,1535061600,40,72,37.46,-122.43,77.0,5.82
Bonfim,BR,3451126,1535058000,0,44,-20.33,-44.24,75.2,9.17
Kruisfontein,ZA,986717,1535063707,0,100,-34.0,24.73,50.38,4.36
Rocha,UY,3440777,1535063707,36,92,-34.48,-54.34,48.85,7.61
Qena,EG,350550,1535058000,0,43,26.16,32.72,89.6,4.36
Andenes,NO,3163146,1535062800,92,71,69.31,16.12,53.6,16.11
Shache,CN,1280037,1535063530,88,73,38.42,77.24,65.5,7.94
Sebeta,ET,329114,1535058000,75,93,8.91,38.62,53.6,4.7
Venezuela,CU,3534432,1535063634,64,100,21.74,-78.8,77.74,3.8
Labuhan,ID,1641899,1535063708,68,93,-2.54,115.51,73.96,2.57
Polunochnoye,RU,1494482,1535063708,92,76,60.87,60.43,51.46,9.95
Turkmenabat,TM,1219649,1535061600,0,35,39.09,63.58,69.8,11.41
Morros,BR,3398381,1535061600,0,74,-2.87,-44.04,80.6,11.41
Kotdwara,IN,1266014,1535063709,92,100,29.75,78.53,68.02,2.24
Greenville,US,4580543,1535061360,1,31,34.85,-82.4,82.04,8.05
Huarmey,PE,3939168,1535063710,8,74,-10.07,-78.15,61.99,4.14
Pilar,PH,1693839,1535058000,90,88,14.67,120.55,82.4,17.22
Gizo,SB,2108857,1535063710,48,100,-8.1,156.84,82.51,9.4
Leningradskiy,RU,2123814,1535063532,92,90,69.38,178.42,41.38,8.72
Nevelsk,RU,2122894,1535061600,75,93,46.67,141.86,57.2,11.18
Wajima,JP,1848976,1535063711,36,76,37.4,136.9,84.49,20.36
Krasyliv,UA,704492,1535063711,32,53,49.66,26.97,65.41,11.18
Athens,US,4180386,1535061360,20,52,33.96,-83.39,86.0,4.7
Saint George,BM,3573061,1535061300,40,74,32.38,-64.68,82.4,10.29
Luang Prabang,LA,1655559,1535063712,92,100,19.89,102.14,69.64,2.13
Petrovsk-Zabaykalskiy,RU,2017945,1535063712,12,81,51.27,108.84,66.85,2.91
Malur,IN,1264010,1535061600,40,100,13.01,77.94,68.0,14.99
Kyra,RU,2021041,1535063712,0,86,49.58,111.97,63.16,2.91
Brae,GB,2654970,1535062800,56,87,60.4,-1.35,51.8,8.05
Lavrentiya,RU,4031637,1535063713,80,96,65.58,-170.99,46.96,4.03
Nishihara,JP,1850144,1535062740,75,83,35.74,139.53,82.4,20.8
Hjelset,NO,3152548,1535061000,75,76,62.78,7.5,55.4,6.93
Port Macquarie,AU,2152659,1535061600,0,93,-31.43,152.91,48.2,5.82
Miandrivazo,MG,1059051,1535063714,0,87,-19.53,45.46,57.67,2.46
Katsuura,JP,1865309,1535059200,75,74,33.93,134.5,84.2,19.46
Erenhot,CN,2037485,1535063714,0,58,43.65,111.97,65.59,8.39
Bocas del Toro,PA,3713959,1535063444,88,100,9.33,-82.25,80.62,14.76
Talnakh,RU,1490256,1535063656,0,72,69.49,88.39,51.82,9.73
Aranos,NA,3358666,1535063715,0,37,-24.14,19.11,42.46,2.91
Comodoro Rivadavia,AR,3860443,1535061600,20,81,-45.87,-67.48,44.6,3.36
Morehead,PG,2090495,1535063715,44,65,-8.71,141.64,82.69,12.75
Aloleng,PH,1731298,1535063715,92,100,16.13,119.78,76.48,12.3
Pakxan,LA,1655140,1535063716,92,99,18.39,103.66,71.71,2.35
Sovetskiy,RU,490040,1535063716,68,73,56.76,48.47,50.56,8.28
Fortuna,US,5563839,1535061300,90,82,40.6,-124.16,60.98,9.17
Cibadak,ID,1629710,1535061600,20,88,-6.23,107.38,75.2,6.6
Sao Simao,BR,3448197,1535061600,0,28,-21.48,-47.55,82.4,4.7
Gornozavodsk,RU,559752,1535063717,92,90,58.37,58.33,47.23,11.18
Tres Arroyos,AR,3833859,1535063717,68,39,-38.38,-60.28,53.17,7.16
Asbe Teferi,ET,343402,1535063717,76,81,9.08,40.87,59.29,3.8
Molina,CL,3879627,1535061600,75,86,-35.11,-71.28,41.0,9.17
Swan River,CA,6160362,1535063718,0,47,52.11,-101.27,68.11,9.62
Gidole,ET,336526,1535063718,92,90,5.65,37.37,64.87,2.13
Mayumba,GA,2399001,1535063656,68,99,-3.44,10.65,70.27,4.81
Digras,IN,1272596,1535063718,12,94,20.1,77.72,73.51,11.41
Bangui,CF,2389853,1535061600,20,94,4.39,18.55,73.4,6.93
Aden,YE,415189,1535063719,36,91,12.79,45.03,78.37,7.83
Bonthe,SL,2409914,1535063719,92,95,7.53,-12.5,76.03,4.14
Karpathos,GR,260895,1535061000,0,88,35.51,27.21,75.2,14.99
Lisala,CD,211734,1535063719,92,98,2.15,21.52,68.74,4.03
Te Anau,NZ,2181625,1535063720,92,100,-45.41,167.72,41.83,3.47
Svetlogorsk,RU,584051,1535061600,40,66,53.14,59.15,50.0,11.18
Biak,ID,1637001,1535063720,92,95,-0.91,122.88,76.66,4.92
Road Town,VG,3577430,1535061600,40,62,18.42,-64.62,84.92,8.05
Abbeville,FR,3038789,1535061600,75,68,50.11,1.83,66.2,13.87
Batang Berjuntai,MY,1732892,1535061600,75,88,3.38,101.42,75.2,2.91
Taltal,CL,3870243,1535063721,0,94,-25.41,-70.49,51.91,2.24
Port Alberni,CA,6111632,1535061600,75,37,49.24,-124.81,71.6,4.7
Dzhankoy,UA,709334,1535063721,0,72,45.71,34.39,65.59,8.16
Seoul,KR,1835848,1535061600,75,78,37.57,126.98,77.0,13.87
Licheng,CN,1803790,1535063721,68,80,24.5,110.4,80.8,3.47
Tessalit,ML,2449893,1535063574,36,36,20.2,1.01,84.31,3.36
La Asuncion,VE,3480908,1535061600,40,83,11.03,-63.86,82.4,15.43
Cajnice,BA,3202895,1535061600,0,77,43.56,19.07,64.4,1.12
Jamame,SO,56399,1535063722,88,83,0.07,42.75,75.67,9.4
Tangjiazhuang,CN,1783626,1535063723,76,85,33.27,105.76,66.31,2.35
Howard Springs,AU,6301965,1535061600,0,94,-12.5,131.05,68.0,1.12
Kourou,GF,3381303,1535061600,0,78,5.16,-52.64,80.6,5.82
Hambantota,LK,1244926,1535063723,48,100,6.12,81.12,79.54,18.68
Gashua,NG,2341656,1535063723,68,82,12.87,11.04,76.3,9.62
Ha Tinh,VN,1581047,1535063524,68,100,18.33,105.9,83.68,14.54
Cairns,AU,2172797,1535061600,20,77,-16.92,145.77,69.8,2.24
West Bay,KY,3580477,1535061600,20,74,19.37,-81.42,86.0,4.7
Naze,JP,1855540,1535059800,40,94,28.37,129.48,82.4,13.87
Borovskoy,KZ,1525121,1535063724,32,82,53.8,64.15,51.91,13.2
Clarksburg,US,4802316,1535061300,90,43,39.28,-80.34,75.92,4.7
Agadir,MA,2561668,1535061600,75,83,30.42,-9.58,69.8,2.24
Phan Thiet,VN,1571058,1535063725,76,100,10.93,108.1,78.64,10.18
Mitsamiouli,KM,921786,1535063725,68,98,-11.38,43.28,76.12,7.72
Moose Factory,CA,6078372,1535061600,90,76,51.26,-80.61,48.2,11.41
Beyneu,KZ,610298,1535063726,0,46,45.32,55.19,59.83,8.61
Poum,NC,2138555,1535063726,76,100,-20.23,164.02,71.26,14.43
Gambela,ET,337405,1535063726,92,97,8.25,34.59,61.27,2.91
Yulara,AU,6355222,1535061600,0,70,-25.24,130.99,42.8,4.7
Ribeira Grande,PT,3372707,1535059800,75,78,38.52,-28.7,75.2,13.87
Lesozavodsk,RU,2020812,1535063727,92,86,45.47,133.42,69.64,4.92
Shyryayeve,UA,694016,1535063727,0,57,47.38,30.2,56.77,5.37
Ketchikan,US,5554428,1535061360,75,60,55.34,-131.65,64.94,13.87
Medea,DZ,2488835,1535061600,40,83,36.27,2.77,73.4,2.24
Asyut,EG,359783,1535063728,0,55,27.18,31.19,77.47,6.93
Saint-Augustin,CA,6138501,1535061600,20,47,45.63,-73.98,77.0,9.17
Lazaro Cardenas,MX,3996234,1535060640,40,29,28.39,-105.62,89.6,3.36
Finschhafen,PG,2097418,1535063728,92,96,-6.6,147.85,73.78,3.36
Qazanbulaq,AZ,586112,1535061600,20,64,40.62,46.65,69.8,4.7
Alofi,NU,4036284,1535061600,75,61,-19.06,-169.92,82.4,6.93
Saint-Pierre,PM,3424934,1535061600,90,93,46.77,-56.17,66.2,21.92
Nara,ML,6779095,1535063729,0,91,15.17,-7.29,72.79,3.24
Srednekolymsk,RU,2121025,1535063730,8,74,67.46,153.71,54.61,3.36
Ramanuj Ganj,IN,1258731,1535063730,92,91,23.81,83.7,77.74,3.69
Vilyuysk,RU,2013392,1535063730,76,88,63.75,121.63,55.96,5.93
Palauig,PH,1696188,1535063730,92,100,15.44,119.9,73.87,6.6
Kashan,IR,128477,1535063730,8,21,33.99,51.44,76.66,8.28
Campbellsville,US,4286717,1535062500,1,39,37.34,-85.34,77.9,3.36
Khasan,RU,2039557,1535063731,92,100,42.43,130.64,67.57,12.53
Snezhnogorsk,RU,795243,1535061600,75,93,69.19,33.23,46.4,2.24
Pignon,HT,3718834,1535063731,80,99,19.34,-72.12,68.38,1.68
Cukai,MY,1732945,1535061600,44,100,4.25,103.42,75.2,3.24
Along,IN,1278969,1535063731,44,94,28.17,94.8,70.27,1.68
Roebourne,AU,2062276,1535063732,0,24,-20.77,117.15,59.47,16.78
Meadow Lake,CA,6071421,1535061600,90,62,54.13,-108.44,59.0,10.29
Marfino,RU,503977,1535061600,0,81,56.07,37.56,51.8,2.24
Aksu,CN,1529660,1535063732,12,69,41.12,80.26,57.49,3.24
Diamantino,BR,3464724,1535063733,8,78,-14.4,-56.44,73.87,2.13
Piacabucu,BR,3454005,1535063733,92,87,-10.41,-36.43,72.97,7.94
Verkhnyaya Inta,RU,1487332,1535063733,92,97,65.99,60.32,54.7,3.36
Trairi,BR,3386177,1535063734,8,98,-3.28,-39.27,79.81,20.69
Matagami,CA,6067747,1535061600,1,49,49.76,-77.63,73.4,6.93
Touros,BR,3386213,1535063734,0,82,-5.2,-35.46,76.57,15.88
Minab,IR,123941,1535061600,0,84,27.15,57.07,87.8,6.93
San Cristobal,EC,3652567,1535063735,92,97,-1.02,-79.44,63.52,1.57
Muravlenko,RU,1540711,1535063735,80,100,63.79,74.5,54.79,5.26
Navalmoral de la Mata,ES,2513324,1535063735,0,88,39.89,-5.54,61.54,2.35
Tymovskoye,RU,2120334,1535063736,64,83,50.85,142.66,59.02,2.57
Hammerfest,NO,779683,1535062800,75,87,70.66,23.68,48.2,9.17
Chubbuck,US,5588842,1535061180,1,2,42.93,-112.47,84.02,19.46
Maposeni,TZ,878073,1535063736,8,86,-10.58,35.4,52.81,2.35
Worland,US,5843495,1535061300,1,29,44.02,-107.96,78.98,8.05
Lumby,CA,6061958,1535061600,1,20,50.25,-118.97,84.2,11.41
Shubarshi,KZ,608270,1535063737,0,59,48.59,57.19,53.44,11.18
Knysna,ZA,988698,1535061600,0,87,-34.04,23.05,46.4,3.36
Sumbe,AO,3346015,1535063737,20,100,-11.2,13.84,67.12,3.8
Balarampur,IN,1277634,1535063738,92,98,23.1,86.22,77.11,3.91
Fatezh,RU,563300,1535063738,0,81,52.09,35.86,46.24,3.13
Cabedelo,BR,3404558,1535061600,0,73,-6.97,-34.84,73.4,6.93
Askino,RU,580577,1535063739,44,74,56.09,56.58,49.93,12.3
Gimli,CA,5961417,1535063739,44,41,50.63,-96.99,84.31,3.47
Mackay,AU,2159220,1535058000,0,93,-21.15,149.2,55.4,5.82
Praia,CV,3374333,1535061600,20,78,14.92,-23.51,78.8,14.99
Shebalino,RU,1492299,1535063739,36,97,51.29,85.68,48.85,1.45
Arman,RU,2127060,1535061600,90,87,59.7,150.17,57.2,2.24
Marawi,SD,370481,1535063740,0,28,18.48,31.82,78.91,2.8
Palembang,ID,1633070,1535059800,20,100,-2.99,104.76,77.0,2.24
Rio Sereno,PA,3701810,1535061600,40,79,8.82,-82.87,84.2,6.93
Cookeville,US,4615145,1535062500,1,47,36.16,-85.5,77.0,5.82
Icod de los Vinos,ES,2516474,1535061600,0,36,28.37,-16.71,75.2,9.17
Rio Gallegos,AR,3838859,1535061600,20,59,-51.62,-69.22,37.4,27.51
Middelburg,ZA,976361,1535063741,32,33,-25.77,29.46,42.37,1.9
Shaoguan,CN,1795874,1535063741,88,97,24.81,113.59,73.24,2.8
Dafeng,CN,1813088,1535063742,24,87,33.2,120.46,75.4,7.16
Laje,BR,3456450,1535063742,92,89,-13.18,-39.42,67.84,7.72
